{
  "cars": [
    {
      "id": 1,
      "title": "Tesla Model 3",
      "price": "1.125 DKK/day",
      "image": "http://192.168.1.29:3000/assets/TeslaModel3.jpg",
      "coords": { "latitude": 55.3987, "longitude": 10.3852 },
      "information": "Sleek, fast, fully electric sedan with autopilot.",
      "mileage": "500 km per charge",
      "seats": 5,
      "ratings": 4.8,
      "usage": 120
    },
    {
      "id": 2,
      "title": "Nissan Leaf",
      "price": "525 DKK/day",
      "image": "http://192.168.1.29:3000/assets/NissanLeaf.jpg",
      "coords": { "latitude": 55.4021, "longitude": 10.3924 },
      "information": "Compact electric car, perfect for city driving.",
      "mileage": "270 km per charge",
      "seats": 5,
      "ratings": 4.3,
      "usage": 95
    },
    {
      "id": 3,
      "title": "BMW i3",
      "price": "675 DKK/day",
      "image": "http://192.168.1.29:3000/assets/BMWi3.jpeg",
      "coords": { "latitude": 55.3945, "longitude": 10.3981 },
      "information": "Urban electric car with futuristic design.",
      "mileage": "310 km per charge",
      "seats": 4,
      "ratings": 4.5,
      "usage": 103
    },
    {
      "id": 4,
      "title": "Volkswagen ID.4",
      "price": "900 DKK/day",
      "image": "http://192.168.1.29:3000/assets/VolkswagenID4.jpg",
      "coords": { "latitude": 55.3892, "longitude": 10.3847 },
      "information": "Spacious electric SUV with great comfort.",
      "mileage": "400 km per charge",
      "seats": 5,
      "ratings": 4.6,
      "usage": 125
    },
    {
      "id": 5,
      "title": "Hyundai Kona Electric",
      "price": "638 DKK/day",
      "image": "http://192.168.1.29:3000/assets/HyundaiKonaElectric.avif",
      "coords": { "latitude": 55.4003, "longitude": 10.3963 },
      "information": "Compact SUV with long range and safety features.",
      "mileage": "450 km per charge",
      "seats": 5,
      "ratings": 4.4,
      "usage": 154
    },
    {
      "id": 6,
      "title": "Audi e-tron",
      "price": "1.500 DKK/day",
      "image": "http://192.168.1.29:3000/assets/Audietron.jpg",
      "coords": { "latitude": 55.3978, "longitude": 10.3899 },
      "information": "Luxury electric SUV with premium features.",
      "mileage": "350 km per charge",
      "seats": 5,
      "ratings": 4.7,
      "usage": 85
    },
    {
      "id": 7,
      "title": "Polestar 2",
      "price": "1.200 DKK/day",
      "image": "http://192.168.1.29:3000/assets/Polestar2.webp",
      "coords": { "latitude": 55.3916, "longitude": 10.3815 },
      "information": "High-performance electric sedan with minimalist design.",
      "mileage": "470 km per charge",
      "seats": 5,
      "ratings": 4.6,
      "usage": 57
    },
    {
      "id": 8,
      "title": "Kia EV6",
      "price": "975 DKK/day",
      "image": "http://192.168.1.29:3000/assets/KiaEV6.webp",
      "coords": { "latitude": 55.3933, "longitude": 10.3942 },
      "information": "Modern crossover with fast charging capabilities.",
      "mileage": "510 km per charge",
      "seats": 5,
      "ratings": 4.5,
      "usage": 133
    },
    {
      "id": 9,
      "title": "Ford Mustang Mach-E",
      "price": "1.350 DKK/day",
      "image": "http://192.168.1.29:3000/assets/FordMustangMach-E.jpg",
      "coords": { "latitude": 55.3995, "longitude": 10.3876 },
      "information": "Sporty electric SUV with impressive acceleration.",
      "mileage": "450 km per charge",
      "seats": 5,
      "ratings": 4.7,
      "usage": 124
    },
    {
      "id": 10,
      "title": "Renault Zoe",
      "price": "488 DKK/day",
      "image": "http://192.168.1.29:3000/assets/RenaultZoe.jpg",
      "coords": { "latitude": 55.4012, "longitude": 10.3909 },
      "information": "Small city car, easy to park and eco-friendly.",
      "mileage": "300 km per charge",
      "seats": 4,
      "ratings": 4.2,
      "usage": 93
    }
  ]
}